{"type": "FeatureCollection", "features": [{"geometry": {"type": "Point", "coordinates": [-1.2636819449715202, 51.752250935302996]}, "type": "Feature", "properties": {"destination": "Carterton", "service": "S1", "approaching": {"name": "Park End Street stop E7", "area": "Oxford City Centre"}}}, {"geometry": {"type": "Point", "coordinates": [-1.3043177307608018, 51.74968389506855]}, "type": "Feature", "properties": {"destination": "Witney Thorney Leys", "service": "S1", "approaching": {"name": "Deanfield Road", "area": "Botley"}}}, {"geometry": {"type": "Point", "coordinates": [-1.3159316052625447, 51.750021827829137]}, "type": "Feature", "properties": {"destination": "Witney Thorney Leys", "service": "S1", "approaching": {"name": "Nobles Lane", "area": "Botley"}}}, {"geometry": {"type": "Point", "coordinates": [-1.4928870876833888, 51.784540106143233]}, "type": "Feature", "properties": {"destination": "Thorney Leys", "service": "S1", "approaching": {"name": "Bus Garage", "area": "Witney"}}}, {"geometry": {"type": "Point", "coordinates": [-1.5083245688750249, 51.77952512808875]}, "type": "Feature", "properties": {"destination": "Carterton", "service": "S1", "approaching": {"name": "Thorney Leys", "area": "Witney"}}}]}